Time,header.seq,header.stamp.secs,header.stamp.nsecs,header.frame_id,pose.position.x,pose.position.y,pose.position.z,pose.orientation.x,pose.orientation.y,pose.orientation.z,pose.orientation.w
1657548677.5637503,0,1657548677,562608875,map,-0.01410514023154974,-0.02417599968612194,0.0879189670085907,0.0044135093162170685,0.0021762689864727744,-0.016810186234873015,-0.9998466526508464
1657548677.56377,1,1657548677,562688991,map,-0.01409498043358326,-0.024183526635169983,0.08791483938694,0.004417675021820377,0.00217668543355601,-0.016803822060747875,-0.9998466947976947
1657548677.5648174,2,1657548677,563145634,map,-0.01408133190125227,-0.02419780194759369,0.0879087820649147,0.004420873407859522,0.0021733533629817448,-0.016805971550021892,-0.9998466526508464
1657548677.5865393,3,1657548677,585759874,map,-0.01407098863273859,-0.02420864999294281,0.08790235221385956,0.004418789114491757,0.002174110030621417,-0.016802557655292538,-0.9998467790913919
1657548677.5865471,4,1657548677,585851632,map,-0.014058338478207588,-0.024224525317549706,0.08789527416229248,0.004417939509758395,0.002168827927440951,-0.016801630424625236,-0.9998467790913919
1657548677.6152415,5,1657548677,614597535,map,-0.014041774906218052,-0.024246934801340103,0.08788775652647018,0.004419413826275642,0.0021616032002799994,-0.016797205005531612,-0.9998468212382403
1657548677.616348,6,1657548677,614970194,map,-0.01402668934315443,-0.024264490231871605,0.08788122981786728,0.004414480751684407,0.0021623242241981767,-0.01679956522904824,-0.9998468212382403
1657548677.6163611,7,1657548677,615144442,map,-0.014013499952852726,-0.024277957156300545,0.0878763273358345,0.004415691979670715,0.002159936835720613,-0.016796952124440545,-0.9998469055319374
1657548677.644951,8,1657548677,643014973,map,-0.01399671845138073,-0.024297643452882767,0.08787131309509277,0.004416552121116204,0.002157353941842241,-0.0167961934811674,-0.9998469055319374
1657548677.6449654,9,1657548677,643352146,map,-0.0139839518815279,-0.024313729256391525,0.087866872549057,0.004413250919815749,0.002156337066803852,-0.01679370681710518,-0.9998469476787859
1657548677.6449766,10,1657548677,643837414,map,-0.013969186693429947,-0.024334535002708435,0.08786185830831528,0.00441182500631984,0.0021588614325390772,-0.016793622523408214,-0.9998469476787859
1657548677.66755,11,1657548677,667161275,map,-0.013950971886515617,-0.02436053566634655,0.08785642683506012,0.004413027097001099,0.0021566471589490486,-0.016794212579287315,-0.9998469476787859
1657548677.668172,12,1657548677,667355526,map,-0.013935402035713196,-0.024381935596466064,0.08785165101289749,0.0044136193754679654,0.002153666998096236,-0.01679299032068049,-0.9998469898256344
1657548677.6683695,13,1657548677,667454103,map,-0.013921599835157394,-0.024398837238550186,0.08784693479537964,0.004413048582015671,0.0021517531031199112,-0.016792526705346866,-0.9998469476787859
1657548677.6950877,14,1657548677,693420852,map,-0.01390489935874939,-0.024419814348220825,0.08784172683954239,0.0044135007551384655,0.0021520635245373615,-0.016790798684558017,-0.9998469898256344
1657548677.6951673,15,1657548677,693597678,map,-0.013890738599002361,-0.024435071274638176,0.08783773332834244,0.0044093990106704945,0.0021543075149483126,-0.016787426936677063,-0.9998470741193315
1657548677.7245207,16,1657548677,723905722,map,-0.013879837468266487,-0.024445585906505585,0.0878337025642395,0.004408923870807985,0.002147548543390632,-0.016788944223223468,-0.9998470741193315
1657548677.7262137,17,1657548677,724448923,map,-0.013866269029676914,-0.024461399763822556,0.08782719075679779,0.004406269524850497,0.0021469398013110657,-0.01679058795031546,-0.9998470319724828
1657548677.726223,18,1657548677,724826974,map,-0.01385548897087574,-0.02447066456079483,0.08782079815864563,0.004404485363142245,0.002150114150475669,-0.016796319921712932,-0.9998469476787859
1657548677.7551916,19,1657548677,754866547,map,-0.013840802013874054,-0.024485263973474503,0.087814100086689,0.004404683585039148,0.00215152080154472,-0.016794760488318017,-0.9998469898256345
1657548677.7562065,20,1657548677,755379204,map,-0.013828856870532036,-0.024496424943208694,0.08780769258737564,0.004403052205656748,0.0021499970941893753,-0.01679054580346695,-0.9998470741193314
1657548677.756218,21,1657548677,755528959,map,-0.013819494284689426,-0.024503707885742188,0.08780315518379211,0.00440478812897979,0.0021500208017916625,-0.016787721964616642,-0.99984711626618
1657548677.786931,22,1657548677,786533863,map,-0.01380624994635582,-0.02451576478779316,0.08779792487621307,0.004409407489431035,0.0021479032519262442,-0.016783928748250743,-0.99984711626618
1657548677.7871764,23,1657548677,786799525,map,-0.013795115984976292,-0.02452303096652031,0.08779334276914597,0.004409225237238451,0.002151249810479686,-0.01678274863649243,-0.99984711626618
1657548677.7876093,24,1657548677,787216190,map,-0.013786681927740574,-0.024526022374629974,0.08778944611549377,0.004409382217785541,0.002150868924799881,-0.016780388412975744,-0.999847200559877
1657548677.814835,25,1657548677,814168748,map,-0.013781419023871422,-0.024525076150894165,0.0877877026796341,0.004409511457145233,0.002154985321883154,-0.01678422377619032,-0.9998471584130284
1657548677.8154373,26,1657548677,815138433,map,-0.013773942366242409,-0.02452985569834709,0.08778512477874756,0.0044100912232664475,0.002156043355953292,-0.016785825356433748,-0.9998470741193314
1657548677.8160267,27,1657548677,815383675,map,-0.013770596124231815,-0.02453121915459633,0.08778326958417892,0.004422065126464781,0.0021598804478471165,-0.016786204678070293,-0.9998470319724828
1657548677.8439593,28,1657548677,843374505,map,-0.013763818889856339,-0.024537304416298866,0.08778013288974762,0.004419297922442237,0.00215967695759415,-0.01678477168522091,-0.9998470319724829
1657548677.8457367,29,1657548677,844555029,map,-0.013758822344243526,-0.024538269266486168,0.08777672797441483,0.00441796502835808,0.0021572449527261697,-0.016782032140067737,-0.9998471584130285
1657548677.846794,30,1657548677,845167291,map,-0.01374891772866249,-0.02454516291618347,0.08777220547199249,0.004419698399821154,0.002162965646548952,-0.016781484231037036,-0.99984711626618
1657548677.8679419,31,1657548677,866586976,map,-0.013739876449108124,-0.024548279121518135,0.08776870369911194,0.004417933582857824,0.002166629705873305,-0.01678207428691625,-0.99984711626618
1657548677.868065,32,1657548677,867337680,map,-0.013726962730288506,-0.024556290358304977,0.08776549249887466,0.004418976305768151,0.0021683831629438722,-0.016782200727461782,-0.9998471584130285
1657548677.8692434,33,1657548677,868019736,map,-0.01371675357222557,-0.024559272453188896,0.08776267617940903,0.0044218803224122276,0.0021729582362769546,-0.016782622195946895,-0.9998470741193315
1657548677.8957791,34,1657548677,894929763,map,-0.01370425894856453,-0.024567337706685066,0.08775942027568817,0.004427557963887801,0.002168901272835527,-0.01678072558776389,-0.99984711626618
1657548677.897287,35,1657548677,895665806,map,-0.013696599751710892,-0.024570833891630173,0.08775713294744492,0.004431552118646779,0.002163925228215146,-0.016773939945153582,-0.9998471584130284
1657548677.924395,36,1657548677,923046488,map,-0.013691937550902367,-0.024570589885115623,0.087754987180233,0.004434808703556818,0.0021664638349753566,-0.016768966617029313,-0.9998472427067255
1657548677.9244049,37,1657548677,923519881,map,-0.013684121891856194,-0.024574827402830124,0.08775341510772705,0.004437522894746468,0.002168098671716423,-0.01676732288993743,-0.999847284853574
1657548677.9244134,38,1657548677,923701333,map,-0.013679834082722664,-0.02457396127283573,0.08775298297405243,0.004441440329070267,0.0021655628637703727,-0.016760031485145044,-0.9998474112941195
1657548677.9260557,39,1657548677,924794868,map,-0.013672355562448502,-0.024579066783189774,0.0877513587474823,0.00443975396122145,0.002169326939541875,-0.016758640639144118,-0.999847369147271
1657548677.9669077,40,1657548677,966152034,map,-0.013667898252606392,-0.024577671661973,0.08774933218955994,0.004439975067540005,0.0021699013549889624,-0.01675805058326507,-0.9998473691472709
1657548677.9671116,41,1657548677,966490303,map,-0.013665422797203064,-0.024571653455495834,0.08774776011705399,0.0044433474739653854,0.0021728865372436486,-0.016752402905564567,-0.999847453440968
1657548677.9680688,42,1657548677,967374800,map,-0.013663802295923233,-0.024560870602726936,0.08774761110544205,0.004439954076433814,0.0021717642950839825,-0.01674641805307603,-0.9998476220283621
1657548677.9746234,43,1657548677,973434566,map,-0.0136583736166358,-0.024555686861276627,0.08774817734956741,0.004441729512427335,0.0021707679172434046,-0.016746586640470074,-0.9998476220283621
1657548678.0053928,44,1657548678,4439228,map,-0.013648695312440395,-0.024556435644626617,0.08774818480014801,0.004438921231691107,0.0021736855163679587,-0.01673803083022235,-0.9998477484689077
1657548678.0054026,45,1657548678,4699388,map,-0.01364094577729702,-0.02455192804336548,0.08774853497743607,0.00443906677002737,0.0021729077753040306,-0.016737061452706536,-0.9998477906157561
1657548678.005541,46,1657548678,4808290,map,-0.013635563664138317,-0.02454354614019394,0.0877496600151062,0.0044424168682575425,0.002172299856405099,-0.016733478970583193,-0.9998478327626046
1657548678.035657,47,1657548678,34910225,map,-0.013625883497297764,-0.024539515376091003,0.08775025606155396,0.004446744822764004,0.0021734635045507046,-0.016734364054401818,-0.9998477906157561
1657548678.035666,48,1657548678,35105064,map,-0.013618693687021732,-0.02452884055674076,0.08775146305561066,0.004446509557738528,0.0021762532637226465,-0.0167322145651278,-0.9998478327626046
1657548678.0362885,49,1657548678,35932073,map,-0.013608336448669434,-0.024523360654711723,0.08775105327367783,0.0044479298736061195,0.002175796398470233,-0.01673360541112867,-0.9998477906157561
1657548678.061129,50,1657548678,60648511,map,-0.013601555489003658,-0.024513045325875282,0.08775094896554947,0.004448995645574226,0.0021736209790061763,-0.01673402687961384,-0.9998477906157561
1657548678.062199,51,1657548678,61237226,map,-0.013597602024674416,-0.02449672855436802,0.08775054663419724,0.004450815615640099,0.00217090407132043,-0.01673166665609721,-0.9998477906157561
1657548678.0680993,52,1657548678,67513266,map,-0.013589208014309406,-0.024485010653734207,0.08774838596582413,0.0044482216088231556,0.0021692886616423482,-0.016727789146034178,-0.9998478749094531
1657548678.0681074,53,1657548678,67727608,map,-0.013582546263933182,-0.024467814713716507,0.0877469852566719,0.004449411269476826,0.002167198770646265,-0.016730360103793362,-0.9998478327626046
1657548678.1086895,54,1657548678,108327673,map,-0.013578025624155998,-0.024447381496429443,0.0877467468380928,0.004451018611984685,0.002170440949895191,-0.016732088124582267,-0.9998477906157561
1657548678.110394,55,1657548678,109077284,map,-0.0135696055367589,-0.02443312481045723,0.08774576336145401,0.0044508896195791835,0.0021733430732238075,-0.016732888914704036,-0.9998477484689076
1657548678.1104102,56,1657548678,109349691,map,-0.013562084175646305,-0.02441371977329254,0.08774592727422714,0.004457409457162403,0.0021778881004637135,-0.016731076600217998,-0.9998477906157561
1657548678.1359532,57,1657548678,135301379,map,-0.013555280864238739,-0.02438979409635067,0.0877453088760376,0.004455629329039263,0.0021803142607491853,-0.01673213027143078,-0.9998477484689077
1657548678.1359615,58,1657548678,135436099,map,-0.013544164597988129,-0.02437102049589157,0.08774379640817642,0.00445800313503635,0.0021819819423975883,-0.016737651508585694,-0.9998477063220591
1657548678.1364472,59,1657548678,135993560,map,-0.013535336591303349,-0.024348389357328415,0.08774320036172867,0.004457137642916734,0.0021804845768225623,-0.016736639984221424,-0.9998477063220591
1657548678.1647158,60,1657548678,163559919,map,-0.013528183102607727,-0.02432231418788433,0.08774416893720627,0.004454806724630729,0.002179157938911231,-0.01674026461319339,-0.9998476220283621
1657548678.1647437,61,1657548678,164440823,map,-0.013516413979232311,-0.02430107817053795,0.08774472773075104,0.004454111383948362,0.0021745875577077675,-0.016741149697012125,-0.9998475798815136
1657548678.1653695,62,1657548678,164885948,map,-0.013507314026355743,-0.02427542582154274,0.08774576336145401,0.0044602849917565095,0.0021684330476903517,-0.016736639984221424,-0.9998477063220591
1657548678.1904414,63,1657548678,189438462,map,-0.013494834303855896,-0.02425491064786911,0.08774549514055252,0.004461932340843229,0.0021715173408934888,-0.01673756721488867,-0.9998476220283621
1657548678.1913733,64,1657548678,190011820,map,-0.013483826071023941,-0.024231232702732086,0.08774539828300476,0.004464233542308311,0.002169912220973344,-0.016735670606705666,-0.9998476641752105
1657548678.2127764,65,1657548678,212227519,map,-0.013469994068145752,-0.024213097989559174,0.08774366229772568,0.004470831664369917,0.002169838299352323,-0.01673516484452353,-0.9998476641752105
1657548678.2148674,66,1657548678,212533456,map,-0.01345832273364067,-0.024190625175833702,0.08774210512638092,0.0044707098336359405,0.0021670901931205118,-0.016731666656097155,-0.9998477063220591
1657548678.2149887,67,1657548678,213348369,map,-0.013443385250866413,-0.024174124002456665,0.08774011582136154,0.0044732254736564335,0.0021689650693347386,-0.016732846767855525,-0.9998476220283621
1657548678.2295482,68,1657548678,228916286,map,-0.01342917699366808,-0.024154111742973328,0.08773832023143768,0.00447142715324126,0.0021687660242572003,-0.01673482766973544,-0.9998476641752105
1657548678.2300038,69,1657548678,229228129,map,-0.013416057452559471,-0.024131055921316147,0.08773559331893921,0.0044678583359163745,0.0021745258191601443,-0.016734364054401873,-0.9998477063220591
1657548678.2641525,70,1657548678,263923245,map,-0.013399765826761723,-0.02411220781505108,0.08773183822631836,0.004468767209655455,0.0021685711774009015,-0.016734532641795863,-0.9998476220283621
1657548678.2645128,71,1657548678,264045104,map,-0.01338585652410984,-0.02409004420042038,0.0877295657992363,0.004465950203204495,0.0021663950993923353,-0.016732636033612913,-0.9998477484689077
1657548678.264517,72,1657548678,264091948,map,-0.013373684138059616,-0.024065399542450905,0.08772828429937363,0.004458773055884245,0.002166507381230947,-0.016729601460520216,-0.9998478327626046
1657548678.2856898,73,1657548678,284981022,map,-0.013357258401811123,-0.024046173319220543,0.08772674202919006,0.004458202427068078,0.002167456014594696,-0.016731750949794177,-0.9998477906157561
1657548678.2861848,74,1657548678,285700801,map,-0.013343000784516335,-0.024022847414016724,0.0877242162823677,0.0044576189566340055,0.0021660256559233575,-0.016732888914704036,-0.9998477484689076
1657548678.3250844,75,1657548678,324521625,map,-0.01333041675388813,-0.023995155468583107,0.08772075921297073,0.004456459342073511,0.002173432882231083,-0.016730823719126986,-0.9998477906157561
1657548678.3259573,76,1657548678,324976451,map,-0.013318395242094994,-0.023964228108525276,0.08771869540214539,0.004456450616358781,0.0021807139149474675,-0.016732593886764457,-0.999847706322059
1657548678.3259714,77,1657548678,325294589,map,-0.013302987441420555,-0.023938467726111412,0.08771630376577377,0.004458156411270582,0.0021767506294623007,-0.016729854341611283,-0.9998477484689076
1657548678.3269694,78,1657548678,325999128,map,-0.013290259055793285,-0.023908335715532303,0.087713323533535,0.004460524372685162,0.0021786902076744367,-0.016722984405303953,-0.9998478749094533
1657548678.3551955,79,1657548678,354928157,map,-0.01327386125922203,-0.023883072659373283,0.08770961314439774,0.004462949545153872,0.0021751599975213315,-0.01671973909796859,-0.9998479170563017
1657548678.3559635,80,1657548678,355425600,map,-0.013259069062769413,-0.023854080587625504,0.08770675212144852,0.004461141428889141,0.002174787672920131,-0.016721214237666426,-0.999847874909453
1657548678.3559978,81,1657548678,355502561,map,-0.013246533460915089,-0.023823430761694908,0.08770517259836197,0.004458141594019153,0.0021722610022791283,-0.016721214237666426,-0.999847874909453
1657548678.3744483,82,1657548678,373550634,map,-0.01322944276034832,-0.023799728602170944,0.08770108222961426,0.0044634836247498455,0.0021763829146726555,-0.01672180429354564,-0.9998478749094531
1657548678.3744607,83,1657548678,373764887,map,-0.013213256374001503,-0.023772869259119034,0.08769692480564117,0.0044645554882546505,0.0021793426606457203,-0.016724670279244347,-0.9998477906157561
1657548678.4038248,84,1657548678,403411274,map,-0.013193092308938503,-0.023750703781843185,0.08769183605909348,0.004466291823168011,0.0021799639150709388,-0.01672205717463665,-0.9998478749094531
1657548678.4046957,85,1657548678,404239580,map,-0.013175771571695805,-0.023724550381302834,0.087687186896801,0.0044663586654355705,0.0021812661868354745,-0.016719654804271622,-0.9998479170563016
1657548678.4047632,86,1657548678,404509034,map,-0.013160880655050278,-0.02369510568678379,0.08768250793218613,0.004466745231061757,0.00218448317675697,-0.016720160566453646,-0.9998479170563016
1657548678.4351268,87,1657548678,434667181,map,-0.01314863283187151,-0.02366223745048046,0.08767920732498169,0.0044725279103863536,0.0021849546946246857,-0.0167195705105746,-0.9998478327626046
1657548678.4358113,88,1657548678,434966589,map,-0.01313356589525938,-0.02363414876163006,0.08767528086900711,0.004472032767234414,0.002185901599309101,-0.016720244860150668,-0.9998478327626046
1657548678.435844,89,1657548678,435118849,map,-0.013120235875248909,-0.023603668436408043,0.08767268061637878,0.004482455880434511,0.00218413110239939,-0.016722605083667352,-0.9998477484689077
1657548678.4654846,90,1657548678,464545532,map,-0.013104201294481754,-0.02357916720211506,0.08766914159059525,0.004480230329269782,0.0021837119388200587,-0.016719739097968644,-0.9998478327626046
1657548678.4655142,91,1657548678,464808137,map,-0.013091091997921467,-0.02355184219777584,0.08766567707061768,0.004482206209747921,0.0021840165979730643,-0.016713332776994938,-0.9998479170563017
1657548678.4655266,92,1657548678,465068310,map,-0.013074620626866817,-0.023528538644313812,0.08766083419322968,0.004478743911997202,0.0021886846907178997,-0.016714007126571118,-0.9998479170563017
1657548678.4949706,93,1657548678,494571765,map,-0.013059809803962708,-0.02350248023867607,0.08765684813261032,0.004473892414606893,0.0021870133047566394,-0.016711098994023843,-0.9998479592031502
1657548678.4957755,94,1657548678,494968572,map,-0.013047389686107635,-0.02347274124622345,0.08765458315610886,0.0044777264607323685,0.0021952457696509317,-0.016711604756205978,-0.9998479592031502
1657548678.496076,95,1657548678,495805789,map,-0.0130306426435709,-0.02344849891960621,0.08765264600515366,0.00447363064316497,0.0022000343760407277,-0.016713332776994938,-0.9998479170563017
1657548678.5150442,96,1657548678,514487735,map,-0.013016123324632645,-0.023420678451657295,0.08765076100826263,0.004470680199133081,0.0021966008896122328,-0.01671421786081373,-0.9998479592031502
1657548678.515285,97,1657548678,514780350,map,-0.012997201643884182,-0.02339884452521801,0.08764858543872833,0.004469478520042139,0.0021940482064631652,-0.016709581707477494,-0.9998480434968473
1657548678.545503,98,1657548678,543854282,map,-0.012981745414435863,-0.023373376578092575,0.0876481756567955,0.004468073597652422,0.0021940036723908127,-0.016707727246143,-0.9998480434968472
1657548678.545559,99,1657548678,544483755,map,-0.01296937931329012,-0.023345135152339935,0.08764870464801788,0.004467536143015844,0.0021955809688054945,-0.016703470414443422,-0.9998481699373927
1657548678.5458934,100,1657548678,544867939,map,-0.012958992272615433,-0.02331284061074257,0.0876496285200119,0.004466028405364818,0.0021959388877455834,-0.01670688430917272,-0.9998481277905442
1657548678.575149,101,1657548678,574512019,map,-0.012946243397891521,-0.023285625502467155,0.0876496285200119,0.0044627054720956,0.0021951953086780072,-0.01670903379844685,-0.9998480856436958
1657548678.5758433,102,1657548678,574755048,map,-0.012936010956764221,-0.0232559647411108,0.08764982223510742,0.004463951191350513,0.002194164274932697,-0.01671135187511491,-0.9998480434968472
1657548678.5758584,103,1657548678,574926894,map,-0.01292162761092186,-0.02323220483958721,0.08764950186014175,0.004463196581662428,0.002195840846931957,-0.016711520462508955,-0.9998480434968472
1657548678.6014645,104,1657548678,600737719,map,-0.012911106459796429,-0.023204339668154716,0.0876503735780716,0.0044643575133119385,0.0021924039854628588,-0.016711562609357467,-0.9998480013499986
1657548678.6014757,105,1657548678,601091509,map,-0.012896548956632614,-0.0231824591755867,0.08765001595020294,0.004462801372639575,0.002192445473766862,-0.016717884636634095,-0.9998479170563017
1657548678.6021833,106,1657548678,601376760,map,-0.012886222451925278,-0.023159123957157135,0.08765040338039398,0.004463606443300584,0.002194580804333996,-0.016717547461846005,-0.9998479170563017
1657548678.6362038,107,1657548678,635028412,map,-0.012879005633294582,-0.023135298863053322,0.08765169978141785,0.004463971276958007,0.0021951833725588,-0.01672070847548429,-0.999847874909453
1657548678.6362138,108,1657548678,635321401,map,-0.012867402285337448,-0.02311727963387966,0.08765286952257156,0.0044636072664812195,0.0021936158719936746,-0.016725007454032437,-0.9998477906157561
1657548678.6362514,109,1657548678,635707348,map,-0.012858358211815357,-0.023096302524209023,0.0876549780368805,0.004464983295230649,0.002188792362744955,-0.016724290957607746,-0.9998478327626046
1657548678.6670651,110,1657548678,666480152,map,-0.012851704843342304,-0.02307301014661789,0.08765751123428345,0.004465519679732401,0.0021864594688254264,-0.016727156943306565,-0.9998477484689076
1657548678.6684241,111,1657548678,666902706,map,-0.012848125770688057,-0.023048484697937965,0.08766141533851624,0.004464049890708648,0.00218432833647953,-0.01672627185948783,-0.9998477906157561
1657548678.668442,112,1657548678,667623624,map,-0.012841095216572285,-0.023029528558254242,0.08766452968120575,0.004466052771511613,0.002185437737021291,-0.01672833705506488,-0.9998477484689076
1657548678.6874588,113,1657548678,685963734,map,-0.01283597107976675,-0.02300788275897503,0.08766921609640121,0.004462306147169573,0.0021839160052994702,-0.016728168467670834,-0.9998477484689076
1657548678.6874695,114,1657548678,686355293,map,-0.012831149622797966,-0.022983770817518234,0.08767513185739517,0.004454504123429311,0.0021858839832435127,-0.01672475457294137,-0.9998478749094531
1657548678.714005,115,1657548678,712702471,map,-0.01282238494604826,-0.022963929921388626,0.08768010884523392,0.00444943135508432,0.0021851253399703167,-0.016724459545001846,-0.9998479170563017
1657548678.7140386,116,1657548678,713023689,map,-0.012817032635211945,-0.022942282259464264,0.0876850038766861,0.004449544542421629,0.002184478073037033,-0.01671990768536269,-0.9998480013499986
1657548678.714091,117,1657548678,713107813,map,-0.012813804671168327,-0.02291993983089924,0.08769045770168304,0.004444911517171844,0.002181095953080161,-0.016715566559966033,-0.9998480434968472
1657548678.7484431,118,1657548678,747597306,map,-0.012807278893887997,-0.02290288731455803,0.08769568800926208,0.004440652792156783,0.002177062285650703,-0.016717673902391594,-0.9998480434968471
1657548678.7487612,119,1657548678,748025733,map,-0.012801562435925007,-0.022883877158164978,0.08770105987787247,0.004443013262627584,0.002176212516281215,-0.016718011077179684,-0.9998480434968471
1657548678.7489703,120,1657548678,748312609,map,-0.012796715833246708,-0.02286369726061821,0.08770677447319031,0.004449165385421158,0.0021741703697619606,-0.016715018650935387,-0.9998480856436958
1657548678.780567,121,1657548678,779276807,map,-0.012796025723218918,-0.022843264043331146,0.08771293610334396,0.004454057465616772,0.0021694613649395665,-0.01670823300832508,-0.9998481277905442
1657548678.7805858,122,1657548678,779541978,map,-0.012791913002729416,-0.02282804064452648,0.08771724998950958,0.004450142583152941,0.0021700538903606246,-0.016708275155173646,-0.9998481699373928
1657548678.7809255,123,1657548678,779847545,map,-0.012790014035999775,-0.022810643538832664,0.08772160857915878,0.004454542895237218,0.002167729969110017,-0.0167039761766255,-0.9998482542310898
1657548678.806579,124,1657548678,805835243,map,-0.012790181674063206,-0.022791048511862755,0.08772571384906769,0.004457757333298745,0.0021688810225919068,-0.01670549346317196,-0.9998481699373927
1657548678.8076968,125,1657548678,806379388,map,-0.012785823084414005,-0.02277635596692562,0.08772967755794525,0.004454117969393442,0.002178651435866529,-0.01670094160353275,-0.9998482542310898
1657548678.8077083,126,1657548678,806517144,map,-0.012785183265805244,-0.022759635001420975,0.08773347735404968,0.004452792977843381,0.00217892209765931,-0.0166956732474689,-0.9998483806716354
1657548678.8371913,127,1657548678,836486665,map,-0.012781849130988121,-0.022747274488210678,0.08773615956306458,0.004455011861244965,0.002182974533607245,-0.01669171144370879,-0.9998483806716352
1657548678.8377087,128,1657548678,836695667,map,-0.012782653793692589,-0.022731224074959755,0.0877399742603302,0.004457850517346625,0.002183890239745595,-0.016691247828375222,-0.9998484228184839
1657548678.8377182,129,1657548678,836818022,map,-0.012786994688212872,-0.022713059559464455,0.0877445861697197,0.00445344320822695,0.0021850588269750103,-0.01668635879394803,-0.9998485071121808
1657548678.8673863,130,1657548678,866766344,map,-0.012788400985300541,-0.022700004279613495,0.08774740993976593,0.004459018281395405,0.002188380031564894,-0.016681511906369184,-0.9998485492590293
1657548678.8680282,131,1657548678,866997517,map,-0.012793191708624363,-0.022684313356876373,0.08775085210800171,0.004460332818551402,0.0021895929882305345,-0.016685431563280728,-0.9998485071121808
1657548678.8680456,132,1657548678,867106728,map,-0.012794223614037037,-0.022673510015010834,0.08775360882282257,0.004456209342114668,0.0021883802785190847,-0.01668496794794716,-0.9998485492590292
1657548678.8856077,133,1657548678,884750532,map,-0.012798412702977657,-0.022661110386252403,0.08775708079338074,0.004453047505295716,0.0021885542989053194,-0.01668496794794716,-0.9998485492590292
1657548678.88562,134,1657548678,884893147,map,-0.012805810198187828,-0.022647108882665634,0.08776182681322098,0.004452615747052671,0.002189491819330496,-0.016684504332613537,-0.9998485071121808
1657548678.924231,135,1657548678,922475810,map,-0.012809570878744125,-0.022639481350779533,0.08776479959487915,0.004456989881992755,0.0021941753055532056,-0.016686274500250953,-0.9998485071121808
1657548678.9242704,136,1657548678,922760943,map,-0.012812642380595207,-0.02263087034225464,0.08777021616697311,0.0044551910676692,0.0021946036887556483,-0.016683324220855222,-0.9998485071121809
1657548678.9242933,137,1657548678,923000883,map,-0.01281854510307312,-0.02262146957218647,0.08777301013469696,0.004452568084893905,0.0021869968411439397,-0.016679278123398145,-0.9998486756995748
1657548678.954736,138,1657548678,954383328,map,-0.012826728634536266,-0.02260851301252842,0.08777741342782974,0.0044531954308558224,0.00218390588017766,-0.01668707529037272,-0.9998484649653323
1657548678.9552822,139,1657548678,954524684,map,-0.012838391587138176,-0.02259393408894539,0.0877830907702446,0.004456040919356752,0.002177091343927118,-0.016685937325462863,-0.9998485071121808
1657548678.9552886,140,1657548678,954578470,map,-0.01284695789217949,-0.022585254162549973,0.0877876877784729,0.004459080596169473,0.0021816835394174085,-0.0166794888576407,-0.9998486335527264
1657548678.9658961,141,1657548678,965388525,map,-0.012856770306825638,-0.022574974223971367,0.0877927839756012,0.004456191643731016,0.0021737236296313577,-0.01667995247297427,-0.9998485914058778
1657548678.9670522,142,1657548678,965987926,map,-0.012868295423686504,-0.022562408819794655,0.08779797703027725,0.0044584811560310815,0.002176623448054196,-0.01668033179461087,-0.9998485492590292
1657548678.9918315,143,1657548678,991147230,map,-0.012876139022409916,-0.02255462296307087,0.08780142664909363,0.004451544459774309,0.0021818920510722484,-0.01668016320721688,-0.9998486335527264
1657548678.992904,144,1657548678,991879910,map,-0.01288688462227583,-0.02254541404545307,0.08780525624752045,0.004449068332424294,0.002182698768094527,-0.016681722640611796,-0.9998485914058779
1657548679.0241458,145,1657548679,23500061,map,-0.012900562025606632,-0.022535966709256172,0.0878092348575592,0.0044488136403358315,0.0021863989650487553,-0.016683450661400756,-0.9998485492590292
1657548679.0245514,146,1657548679,23812457,map,-0.012910553254187107,-0.022532818838953972,0.08781205862760544,0.004447846073817478,0.0021871505289684902,-0.01668589517861435,-0.9998485492590293
1657548679.024559,147,1657548679,23916967,map,-0.012922997586429119,-0.022528091445565224,0.08781560510396957,0.004445035076585154,0.002191666497931982,-0.016688213255282525,-0.9998485071121808
1657548679.0508344,148,1657548679,50315208,map,-0.012932059355080128,-0.02252952568233013,0.08781983703374863,0.004449843933218571,0.002194598173445394,-0.01669377663928584,-0.9998483385247867
1657548679.0512385,149,1657548679,50608517,map,-0.012944024056196213,-0.022529086098074913,0.08782400190830231,0.004445275856920885,0.0021899242361180502,-0.016696263303348002,-0.9998483806716353
1657548679.0517883,150,1657548679,50800210,map,-0.012958716601133347,-0.022526074200868607,0.08782755583524704,0.004443883529194882,0.002187961938120389,-0.016694366695164997,-0.9998484228184839
1657548679.0671175,151,1657548679,66496324,map,-0.012975252233445644,-0.02252042666077614,0.08783130347728729,0.004439714201596781,0.0021868569827540574,-0.016687833933645924,-0.9998485492590292
1657548679.0671287,152,1657548679,66745936,map,-0.012986451387405396,-0.02251998893916607,0.08783382922410965,0.004432775776660675,0.0021890262283633523,-0.016684082864128424,-0.9998485914058778
1657548679.0925891,153,1657548679,91784082,map,-0.012999264523386955,-0.02251756377518177,0.08783649653196335,0.00443411262201188,0.0021887285662457443,-0.016683703542491823,-0.9998486335527264
1657548679.0925984,154,1657548679,92010146,map,-0.013008801266551018,-0.022520720958709717,0.08783893287181854,0.004432976221145292,0.002188680245542471,-0.016686358793947975,-0.9998485914058779
1657548679.1237533,155,1657548679,122924413,map,-0.013021948747336864,-0.022522348910570145,0.08784260600805283,0.0044306082597307134,0.0021937344100051116,-0.016686400940796486,-0.9998485492590293
1657548679.1250987,156,1657548679,123705073,map,-0.013032232411205769,-0.022529395297169685,0.0878455713391304,0.004429222023541409,0.002196211854444142,-0.016686738115584576,-0.9998485492590293
1657548679.12511,157,1657548679,124036109,map,-0.01304602064192295,-0.022534552961587906,0.08784925192594528,0.004425945517660005,0.0021969707446715288,-0.01669010986346542,-0.9998485492590293
1657548679.1735947,158,1657548679,172601551,map,-0.013061710633337498,-0.022536825388669968,0.08785343915224075,0.004424625959102135,0.002194060471854626,-0.016693734492437384,-0.9998484649653323
1657548679.1756804,159,1657548679,173192937,map,-0.01307909656316042,-0.022538023069500923,0.08785812556743622,0.0044246166571609595,0.0021930806399448116,-0.01669348161134626,-0.9998484649653323
1657548679.1756985,160,1657548679,174382168,map,-0.013091960921883583,-0.022544199600815773,0.08786141872406006,0.004422584471127388,0.0021979597138863916,-0.01669318658340674,-0.9998485071121808
1657548679.1757092,161,1657548679,175097814,map,-0.01310459803789854,-0.02254534512758255,0.08786424249410629,0.004422368962437151,0.0021980869776125596,-0.01669221720589098,-0.9998484649653323
1657548679.1902494,162,1657548679,189094430,map,-0.013113214634358883,-0.022551657631993294,0.08786648511886597,0.004421921893034294,0.002196445802380603,-0.016694703869953087,-0.9998484228184839
1657548679.1903894,163,1657548679,189473197,map,-0.013122877106070518,-0.022555779665708542,0.08786928653717041,0.004418160533758888,0.0021998634014228427,-0.0166951253384382,-0.9998485071121808
1657548679.2171288,164,1657548679,215564653,map,-0.013129139319062233,-0.02256590500473976,0.08787126839160919,0.0044200693250152755,0.002201118257982804,-0.016688423989525025,-0.9998485492590293
1657548679.217144,165,1657548679,215678391,map,-0.013137297704815865,-0.022575408220291138,0.08787350356578827,0.004428549814234886,0.0022034866309877006,-0.01669188003110289,-0.9998484649653323
1657548679.2171566,166,1657548679,215992789,map,-0.01314238365739584,-0.02259179949760437,0.08787412941455841,0.004428853732525321,0.0022021264073064624,-0.016693060142861205,-0.9998484649653323
1657548679.2446635,167,1657548679,242261073,map,-0.01315054390579462,-0.022605622187256813,0.08787330240011215,0.004433986757692791,0.0022061774438473175,-0.01669803347098553,-0.9998483806716352
1657548679.2447996,168,1657548679,242651904,map,-0.013161610811948776,-0.02261606976389885,0.08787190169095993,0.004433826319787035,0.0022086533242431424,-0.016696431890742047,-0.9998483806716353
1657548679.2452712,169,1657548679,243927895,map,-0.013175468891859055,-0.022624097764492035,0.08787098526954651,0.004438711567583377,0.002209800344139921,-0.016696263303348002,-0.9998483806716353
1657548679.2629848,170,1657548679,262420502,map,-0.013185964897274971,-0.0226383525878191,0.08787059038877487,0.004444886986388921,0.002204492886995898,-0.016698033470985474,-0.9998482963779383
1657548679.2630258,171,1657548679,262582045,map,-0.013198629021644592,-0.02265109494328499,0.08787154406309128,0.004448182096152677,0.0022042521066601662,-0.01669891855480421,-0.9998482542310898
1657548679.2942593,172,1657548679,292567903,map,-0.013212467543780804,-0.022661376744508743,0.08787443488836288,0.004441542815059322,0.0022046767032316886,-0.016698370645773564,-0.9998482963779383
1657548679.294994,173,1657548679,293069461,map,-0.01322674099355936,-0.02266831323504448,0.08787776529788971,0.004439688436042906,0.0022091474795783196,-0.016697443415106372,-0.9998482963779383
1657548679.2950308,174,1657548679,293628372,map,-0.013236653991043568,-0.022680116817355156,0.0878799632191658,0.004438828294597417,0.002210452138566697,-0.016700435841350614,-0.9998482542310898
1657548679.3254864,175,1657548679,324166224,map,-0.013246927410364151,-0.022689424455165863,0.08788314461708069,0.004443361221081989,0.0022159765038080375,-0.01669719053401525,-0.9998482963779383
1657548679.325501,176,1657548679,324498787,map,-0.013252880424261093,-0.022704215720295906,0.08788614720106125,0.004442398429011319,0.0022178454531216916,-0.016698033470985474,-0.9998482963779383
1657548679.3255305,177,1657548679,324972490,map,-0.013260933570563793,-0.02271738275885582,0.08788991719484329,0.004438144890034258,0.0022165784134883333,-0.01669613686280247,-0.9998483385247867
1657548679.3537457,178,1657548679,352580504,map,-0.01327153667807579,-0.022727876901626587,0.08789490908384323,0.004435768696813329,0.002215936497229177,-0.016694366695164997,-0.9998484228184839
1657548679.353841,179,1657548679,353030983,map,-0.013284008018672466,-0.022736767306923866,0.08790314942598343,0.0044373174288599776,0.002216587962383699,-0.016694198107770952,-0.9998484228184837
1657548679.353887,180,1657548679,353190678,map,-0.013292938470840454,-0.022751612588763237,0.0879126787185669,0.004434335292373641,0.0022173448769775613,-0.01669407166722542,-0.9998483806716352
1657548679.384758,181,1657548679,383655399,map,-0.01330495160073042,-0.02276451140642166,0.08792497962713242,0.004431326320198605,0.0022172540801535237,-0.016694198107770952,-0.9998484228184837
1657548679.3847744,182,1657548679,383834505,map,-0.013312935829162598,-0.022782273590564728,0.08793613314628601,0.004431809609549401,0.0022203249555123104,-0.016695420366377778,-0.9998483806716353
1657548679.3847847,183,1657548679,384294840,map,-0.013317321427166462,-0.022804876789450645,0.08794708549976349,0.004429848217050438,0.0022226175958987887,-0.016697021946621204,-0.9998482963779383
1657548679.4135141,184,1657548679,412238500,map,-0.01332420576363802,-0.02282276749610901,0.08796041458845139,0.004428160861384859,0.002221991484707824,-0.01670241674323064,-0.9998482963779383
1657548679.4135323,185,1657548679,412487908,map,-0.013327456079423428,-0.022845115512609482,0.0879734456539154,0.004421505610587186,0.0022173764047958818,-0.01670077301613876,-0.9998483385247867
1657548679.414666,186,1657548679,413259621,map,-0.013332326896488667,-0.022864675149321556,0.08798717707395554,0.004422385837640167,0.0022186430328389227,-0.016695926128559913,-0.9998483806716353
1657548679.4414184,187,1657548679,440548543,map,-0.013338741846382618,-0.022881735116243362,0.08800143748521805,0.004426779070370985,0.002217479302375254,-0.016695841834862946,-0.9998483806716354
1657548679.4422028,188,1657548679,441323109,map,-0.013340942561626434,-0.022903887555003166,0.08801525831222534,0.004428666211976673,0.002221236545747485,-0.016692849408618593,-0.9998484228184837
1657548679.442233,189,1657548679,441490016,map,-0.013345311395823956,-0.022922875359654427,0.08802947402000427,0.004427909873609254,0.0022246784286184575,-0.01669339731764924,-0.9998483806716352
1657548679.470342,190,1657548679,469165917,map,-0.013352598063647747,-0.022939056158065796,0.08804396539926529,0.004425680947403923,0.0022274809470902413,-0.016695167485286766,-0.9998483806716354
1657548679.4703562,191,1657548679,469297091,map,-0.01336085144430399,-0.02295207977294922,0.0880584567785263,0.004426015241059788,0.002226525645963349,-0.016695251778983733,-0.9998483806716353
1657548679.4709954,192,1657548679,470321039,map,-0.013369755819439888,-0.022962257266044617,0.08807246387004852,0.0044272305026312065,0.0022316436069252,-0.01669638974389359,-0.9998483385247868
1657548679.4952934,193,1657548679,493911007,map,-0.013375475071370602,-0.022977011278271675,0.0880853459239006,0.004428469636441039,0.002228973455899521,-0.016696558331287636,-0.9998483385247868
1657548679.495305,194,1657548679,494046946,map,-0.013383110985159874,-0.02298789843916893,0.08809727430343628,0.004428016228547293,0.0022273333508023895,-0.016694113814073985,-0.9998484228184839
1657548679.5232162,195,1657548679,522435391,map,-0.013393348082900047,-0.02299586497247219,0.08810941874980927,0.004430781045345995,0.0022277651090454355,-0.016695546806923367,-0.9998483385247868
1657548679.5243897,196,1657548679,522685702,map,-0.013399617746472359,-0.02300873212516308,0.08812213689088821,0.00443144057767074,0.0022273676774348687,-0.016690447038253564,-0.9998484649653323
1657548679.5244951,197,1657548679,523008248,map,-0.013407638296484947,-0.023018214851617813,0.08813577890396118,0.004429628016230581,0.0022300521518035963,-0.016692554380679014,-0.9998483806716352
1657548679.5535188,198,1657548679,552600285,map,-0.013415596447885036,-0.023024851456284523,0.08814942091703415,0.00442551754604788,0.002233383563833354,-0.016696558331287636,-0.9998483385247868
1657548679.554919,199,1657548679,552954991,map,-0.013419073075056076,-0.023037509992718697,0.08816125243902206,0.004422655017707806,0.0022350422728128353,-0.01669773844304595,-0.9998483385247867
1657548679.5549312,200,1657548679,553117323,map,-0.013424468226730824,-0.023047877475619316,0.08817294239997864,0.004422243180436126,0.0022318558228928975,-0.016697485561954828,-0.9998483385247867
1657548679.5747406,201,1657548679,573055581,map,-0.013432439416646957,-0.023054953664541245,0.08818433433771133,0.004419841550933576,0.002224194892313471,-0.016696937652924182,-0.9998483806716353
1657548679.5747547,202,1657548679,573411397,map,-0.013437291607260704,-0.023067496716976166,0.088194340467453,0.004423762442616042,0.002229699089629254,-0.01669976149177449,-0.9998483385247867
1657548679.6013186,203,1657548679,600398770,map,-0.013439408503472805,-0.0230866689234972,0.08820323646068573,0.004425661438022874,0.002228880765760022,-0.01669807561783404,-0.9998483385247867
1657548679.6015282,204,1657548679,600694569,map,-0.013443168252706528,-0.023104170337319374,0.08821117132902145,0.004428572204748157,0.002225325283961423,-0.01669668477183317,-0.9998483806716354
1657548679.6015458,205,1657548679,600811020,map,-0.013449812307953835,-0.023119093850255013,0.08821794390678406,0.004429938355329968,0.002227571250005898,-0.016694703869953087,-0.9998484228184839
1657548679.6425269,206,1657548679,641558535,map,-0.013453510589897633,-0.02313966304063797,0.08822218328714371,0.004432428476750777,0.002231094298487479,-0.016694830310498676,-0.9998483806716354
1657548679.64255,207,1657548679,641745417,map,-0.013458766974508762,-0.023157380521297455,0.08822658658027649,0.004435008077906609,0.0022317665901120656,-0.016693903079831374,-0.9998483806716352
1657548679.6425643,208,1657548679,641918686,map,-0.013465525582432747,-0.02317115105688572,0.08823105692863464,0.004431697410028853,0.0022294822638500005,-0.016694956751044154,-0.9998483385247867
1657548679.642616,209,1657548679,642021682,map,-0.013468923978507519,-0.023190783336758614,0.08823487162590027,0.0044314684834942655,0.0022314148450267393,-0.01669310228970966,-0.9998483385247867
1657548679.6666691,210,1657548679,665781653,map,-0.013473330065608025,-0.023207610473036766,0.08823966979980469,0.0044333223686023005,0.0022294509829858715,-0.016689899129222863,-0.9998484228184839
1657548679.667468,211,1657548679,666121958,map,-0.013473475351929665,-0.02322946861386299,0.08824410289525986,0.004437510629355007,0.0022282762219016936,-0.016688508283222048,-0.9998484649653323
1657548679.6675591,212,1657548679,666385562,map,-0.013475228101015091,-0.023247361183166504,0.08824729919433594,0.0044399404116352735,0.002228661717393054,-0.016688508283222048,-0.9998484649653323
1657548679.694165,213,1657548679,692679638,map,-0.013473991304636002,-0.023270096629858017,0.08824873715639114,0.004443464365615552,0.0022284199492405613,-0.0166949146041957,-0.9998482963779383
1657548679.6949422,214,1657548679,693439104,map,-0.013475125655531883,-0.023289937525987625,0.08825106918811798,0.004444306890995452,0.002227678181170382,-0.016693692345588873,-0.9998483385247867
1657548679.7234871,215,1657548679,721316854,map,-0.013479389250278473,-0.02330639213323593,0.08825426548719406,0.0044378162763247745,0.0022293416645975464,-0.01669516748528671,-0.9998482963779383
1657548679.7235067,216,1657548679,721483463,map,-0.013486168347299099,-0.023320572450757027,0.08825688809156418,0.0044363907744191826,0.0022296298601378523,-0.016698623526864687,-0.9998482963779383
1657548679.723522,217,1657548679,721969523,map,-0.013495453633368015,-0.02333301119506359,0.08825809508562088,0.004443359739356847,0.0022287287242967416,-0.016697822736742973,-0.9998482542310897
1657548679.753648,218,1657548679,752966051,map,-0.013501465320587158,-0.023350441828370094,0.08825764060020447,0.004444402297631047,0.0022247688138521777,-0.016696474037590614,-0.9998482542310898
1657548679.754815,219,1657548679,753428822,map,-0.013510352000594139,-0.023366015404462814,0.08825704455375671,0.004445550552298778,0.002221633730403862,-0.01669723268086376,-0.9998482542310898
1657548679.7548287,220,1657548679,753549602,map,-0.013516714796423912,-0.023387018591165543,0.08825602382421494,0.0044513655826223285,0.002218811784869093,-0.01669731697456084,-0.9998482542310898
1657548679.7743828,221,1657548679,773337517,map,-0.013525824062526226,-0.023406047374010086,0.08825600147247314,0.004452173122825242,0.002218476421078403,-0.01669938217013789,-0.9998482120842411
1657548679.7743948,222,1657548679,773706752,map,-0.013531014323234558,-0.02343035116791725,0.08825583755970001,0.004444792320615899,0.0022166191609297647,-0.01669664262498466,-0.9998482542310898
1657548679.8024445,223,1657548679,801582441,map,-0.0135390255600214,-0.023452073335647583,0.08825583010911942,0.004444367970998567,0.002218564748360536,-0.016695673247468845,-0.9998482963779383
1657548679.8025968,224,1657548679,801912879,map,-0.013549836352467537,-0.023471340537071228,0.08825565129518509,0.0044432497624240135,0.0022227030420487,-0.016698665673713198,-0.9998482542310897
1657548679.8048759,225,1657548679,802256511,map,-0.013561214320361614,-0.023487765341997147,0.08825569599866867,0.0044444284747752385,0.002219717942112077,-0.016702543183776175,-0.9998481699373927
1657548679.8357239,226,1657548679,834953579,map,-0.013567397370934486,-0.023510275408625603,0.08825375139713287,0.004444063641117816,0.0022198667731708815,-0.01670494555414126,-0.9998481277905442
1657548679.8363726,227,1657548679,835216582,map,-0.013575125485658646,-0.023530174046754837,0.08825112134218216,0.004441904273676141,0.0022205496838256593,-0.01670561990371744,-0.9998481277905442
1657548679.8364995,228,1657548679,835479147,map,-0.013578493148088455,-0.02355475164949894,0.08824853599071503,0.004443094428238192,0.0022192390156186466,-0.016707853686688534,-0.9998480856436958
1657548679.8649263,229,1657548679,863490580,map,-0.013584606349468231,-0.023575346916913986,0.08824644237756729,0.004442818498089348,0.0022242498807798876,-0.016707390071354855,-0.9998481277905442
1657548679.864941,230,1657548679,863647123,map,-0.013588112778961658,-0.023599090054631233,0.08824323117733002,0.004437864267755794,0.0022276473118965703,-0.016705704197414517,-0.9998481277905442
1657548679.86495,231,1657548679,863961176,map,-0.01359390839934349,-0.02361893281340599,0.08823958784341812,0.004440438188965244,0.0022298458627364706,-0.016707137190263843,-0.9998481277905442
1657548679.8914857,232,1657548679,889737896,map,-0.013596175238490105,-0.02364538237452507,0.08823513239622116,0.00443978524208558,0.0022295603836922605,-0.016711056847175387,-0.9998480856436958
1657548679.8914964,233,1657548679,890187183,map,-0.013595182448625565,-0.023676790297031403,0.08823059499263763,0.004438511287734886,0.002230024328298134,-0.016709792441719995,-0.9998480856436958
1657548679.8915374,234,1657548679,890572078,map,-0.01359668467193842,-0.02370363287627697,0.08822578936815262,0.0044407499274717105,0.0022323059380641034,-0.0167154401194205,-0.9998480013499986
1657548679.921054,235,1657548679,920786055,map,-0.013600097969174385,-0.023726241663098335,0.08822070062160492,0.00444335537649948,0.002223651099186004,-0.016718306105119263,-0.9998479170563016
1657548679.9216323,236,1657548679,921040318,map,-0.013599803671240807,-0.023753320798277855,0.08821418881416321,0.004443335867118431,0.0022277792677523577,-0.016722267908879207,-0.9998478327626046
1657548679.9216611,237,1657548679,921096117,map,-0.013601230457425117,-0.023776231333613396,0.08820836246013641,0.004442808290649474,0.002230029596654198,-0.01672424881075929,-0.9998477906157561
1657548679.945933,238,1657548679,944601246,map,-0.0136055713519454,-0.02379647083580494,0.08820335566997528,0.004443997457394764,0.0022292335809801734,-0.016720329153847746,-0.9998478327626046
1657548679.945948,239,1657548679,944914671,map,-0.01360748615115881,-0.0238211490213871,0.08819717913866043,0.00444292962747507,0.0022266504401476117,-0.016718474692513308,-0.9998479170563016
1657548679.946019,240,1657548679,945060116,map,-0.013612814247608185,-0.023840980604290962,0.08819032460451126,0.004440362374028763,0.0022277320171839093,-0.016718474692513308,-0.9998479170563016
1657548679.9647303,241,1657548679,963873735,map,-0.013620089739561081,-0.023856645449995995,0.08818405121564865,0.004448852329825676,0.0022221620477353918,-0.01671510294463241,-0.9998480013499986
1657548679.994817,242,1657548679,992583304,map,-0.013629522174596786,-0.023868585005402565,0.08817901462316513,0.004450893570846232,0.0022174813603268416,-0.01671274272111578,-0.9998480013499986
1657548679.9948244,243,1657548679,993505834,map,-0.013635828159749508,-0.023886483162641525,0.08817365020513535,0.004453735684306558,0.0022173162302914643,-0.016711225434569377,-0.9998480013499986
1657548679.9948313,244,1657548679,993625497,map,-0.013643848709762096,-0.023900236934423447,0.0881686732172966,0.004451025279747828,0.0022209294993706385,-0.016711941930994068,-0.9998479592031502
1657548680.026118,245,1657548680,25085641,map,-0.013654999434947968,-0.023911003023386,0.08816434442996979,0.004448821048961547,0.0022249539471769844,-0.016707727246143,-0.9998480434968472
1657548680.0261567,246,1657548680,25370763,map,-0.013662392273545265,-0.0239267535507679,0.08815930038690567,0.004455599447582213,0.0022203401843540575,-0.016710635378690275,-0.9998480013499987
1657548680.0262258,247,1657548680,25482635,map,-0.013672027736902237,-0.023938143625855446,0.0881543830037117,0.004457559440674097,0.002224396653887104,-0.01670873877050727,-0.9998480434968473
1657548680.0553246,248,1657548680,53310591,map,-0.013682574033737183,-0.02394474484026432,0.08815070986747742,0.004460029394169349,0.0022211041783013813,-0.0167073479245064,-0.9998480856436958
1657548680.0554795,249,1657548680,53438200,map,-0.013689523562788963,-0.02395651675760746,0.08814690262079239,0.0044609948204180514,0.0022249507367725083,-0.016706252106445052,-0.9998480856436956
1657548680.0554914,250,1657548680,53644524,map,-0.013699134811758995,-0.023965798318386078,0.08814474195241928,0.004460919417071888,0.0022286935744836277,-0.01671324848329797,-0.9998479170563016
1657548680.0678697,251,1657548680,67563706,map,-0.013711201027035713,-0.023972798138856888,0.0881425067782402,0.004462761119106525,0.0022254063672539686,-0.016711941930994068,-0.9998479592031502
1657548680.0683756,252,1657548680,68131420,map,-0.013721151277422905,-0.023986434563994408,0.08813876658678055,0.004463497124912259,0.002221098416036936,-0.016711773343600023,-0.9998479592031502
1657548680.0913951,253,1657548680,90750498,map,-0.013733760453760624,-0.023998508229851723,0.08813611418008804,0.004461318659679852,0.0022164299940198463,-0.01670705289656682,-0.9998480434968472
1657548680.0914042,254,1657548680,90902285,map,-0.013747790828347206,-0.02400994673371315,0.08813273906707764,0.004465334711043721,0.0022177237870238424,-0.01670406047032258,-0.9998480856436956
1657548680.1216311,255,1657548680,120722048,map,-0.013762164860963821,-0.024019138887524605,0.08812928199768066,0.004464308122473839,0.0022159034876857147,-0.016699129289046766,-0.9998482120842412
1657548680.1220827,256,1657548680,121112705,map,-0.013772648759186268,-0.02403406985104084,0.08812613785266876,0.004464559686475889,0.0022183585416114737,-0.016697106240318227,-0.9998482120842412
1657548680.1236043,257,1657548680,121411771,map,-0.01378002017736435,-0.024055151268839836,0.08812160044908524,0.004464005685908549,0.002213019227376877,-0.016697106240318227,-0.9998482120842412
1657548680.1523616,258,1657548680,151718673,map,-0.013789872638881207,-0.024071915075182915,0.08811722695827484,0.004464555982163032,0.0022089055467896996,-0.01669828635207654,-0.9998482120842412
1657548680.1532543,259,1657548680,152289516,map,-0.0138029670342803,-0.02408609539270401,0.08811324089765549,0.004468829689065649,0.0022061919318264933,-0.0166952939258323,-0.9998482542310898
1657548680.1539464,260,1657548680,152893206,map,-0.01381318736821413,-0.024105563759803772,0.08810743689537048,0.004467525606303716,0.002207453867739915,-0.01668947766073775,-0.9998483385247867
1657548680.1833775,261,1657548680,182891383,map,-0.013825335539877415,-0.024122944101691246,0.08810023963451385,0.004466732307125788,0.002204174069135971,-0.0166917535905573,-0.9998483385247867
1657548680.183546,262,1657548680,183162928,map,-0.013838433660566807,-0.024137170985341072,0.08809371292591095,0.004468461809639877,0.0022014060419327927,-0.01669356590504334,-0.9998482963779383
1657548680.184335,263,1657548680,183718802,map,-0.013853784650564194,-0.02414834126830101,0.08808771520853043,0.004468770913968312,0.002197827264122224,-0.016691922177951346,-0.9998483385247867
1657548680.203474,264,1657548680,202473472,map,-0.013864916749298573,-0.02416560798883438,0.08808021992444992,0.0044694850231691554,0.002194640978838413,-0.0166917535905573,-0.9998483385247867
1657548680.2035203,265,1657548680,202677948,map,-0.013871853239834309,-0.024189278483390808,0.08807333558797836,0.004467711645127222,0.002191499639217272,-0.0166949146041957,-0.9998482963779383
1657548680.2035315,266,1657548680,202790967,map,-0.013881917111575603,-0.02421044558286667,0.08806802332401276,0.004472931021943302,0.0021958515482802124,-0.016695588953771878,-0.9998482963779383
1657548680.2303731,267,1657548680,229774297,map,-0.013893966563045979,-0.024227216839790344,0.08806309103965759,0.004476897270878755,0.002196618917268139,-0.016698665673713142,-0.9998481699373927
1657548680.2307973,268,1657548680,230026868,map,-0.013906535692512989,-0.02423984557390213,0.08805849403142929,0.004480817257062522,0.0021963255356898326,-0.016697991324136963,-0.9998481699373927
1657548680.2549875,269,1657548680,252022766,map,-0.013916210271418095,-0.024257568642497063,0.08805222809314728,0.0044806844780261,0.0021912953257836702,-0.016700309400805136,-0.9998481277905442
1657548680.2549984,270,1657548680,252450023,map,-0.013926740735769272,-0.02427188865840435,0.0880466029047966,0.004481207527001566,0.0021905885428904776,-0.016699340023289322,-0.9998481699373927
1657548680.2809243,271,1657548680,280260892,map,-0.013938352465629578,-0.024283597245812416,0.08804157376289368,0.004481950200570443,0.0021923470213629187,-0.01669761200250036,-0.9998482120842412
1657548680.2809317,272,1657548680,280405951,map,-0.013950026594102383,-0.02429215982556343,0.08803762495517731,0.004478756835933171,0.0021957741693005243,-0.016692807261770137,-0.9998482120842412
1657548680.2809372,273,1657548680,280522467,map,-0.013958103954792023,-0.024307027459144592,0.08803290128707886,0.004481505683027555,0.0021924668764633716,-0.016695378219529322,-0.9998481699373928
1657548680.3110104,274,1657548680,310447537,map,-0.013968683779239655,-0.024319538846611977,0.08802707493305206,0.00447874267722625,0.0021893253722061034,-0.01669293370231567,-0.9998482542310898
1657548680.31185,275,1657548680,311405302,map,-0.013982130214571953,-0.02433081343770027,0.08802187442779541,0.004477515561853687,0.0021844458043561417,-0.016696179009651035,-0.9998482120842414
1657548680.31222,276,1657548680,311903591,map,-0.013996485620737076,-0.02433985099196434,0.08801720291376114,0.004477890685269047,0.0021771994275444906,-0.016696811212378704,-0.9998482542310898
1657548680.3437188,277,1657548680,342408467,map,-0.014006959274411201,-0.024355467408895493,0.08801200985908508,0.004474762598856129,0.0021783722953132075,-0.016699171435895332,-0.9998482542310897
1657548680.3437386,278,1657548680,342660051,map,-0.014019293710589409,-0.02436910942196846,0.08800774812698364,0.004476046678328632,0.0021750236788081793,-0.01669348161134626,-0.9998482963779383
1657548680.3439093,279,1657548680,342905077,map,-0.01403188705444336,-0.02438000775873661,0.08800521492958069,0.00447625115639836,0.002177669381369,-0.016689856982374407,-0.9998483806716352
1657548680.3696787,280,1657548680,368807699,map,-0.014045610092580318,-0.024388743564486504,0.08800330758094788,0.004477815611195137,0.0021784302472299105,-0.01669348161134626,-0.9998482963779383
1657548680.369759,281,1657548680,369098832,map,-0.014055578969419003,-0.024402912706136703,0.0880001038312912,0.004475834709315125,0.0021808918866007493,-0.01669381878613435,-0.9998482963779383
1657548680.3703563,282,1657548680,369397477,map,-0.014065731316804886,-0.024415140971541405,0.08799800276756287,0.004473759800206599,0.0021803095686195664,-0.016693650198740306,-0.9998482963779383
1657548680.3925838,283,1657548680,391917839,map,-0.014077169820666313,-0.02442544512450695,0.0879969671368599,0.004468078948326549,0.0021790105072595064,-0.016689604101283284,-0.9998483806716353
1657548680.3929121,284,1657548680,392409603,map,-0.014088883064687252,-0.02443462796509266,0.08799688518047333,0.00447166225363061,0.002183034049567154,-0.016684546479462048,-0.9998484649653323
1657548680.4318936,285,1657548680,429641447,map,-0.014103051275014877,-0.024441564455628395,0.08799692988395691,0.004474347057271592,0.0021869952771007336,-0.016686400940796486,-0.9998483806716353
1657548680.4319005,286,1657548680,429766806,map,-0.014113986864686012,-0.024453794583678246,0.08799663186073303,0.004476724485263473,0.00218776898457955,-0.016689688394980307,-0.9998482963779383
1657548680.431906,287,1657548680,429844319,map,-0.014126650057733059,-0.02446216531097889,0.08799777925014496,0.004475959668135515,0.0021878739401105093,-0.016689309073343706,-0.9998483385247867
1657548680.4320042,288,1657548680,430476353,map,-0.014139465987682343,-0.02446807362139225,0.08799963444471359,0.004481901139004598,0.002182874187887841,-0.016693017996012638,-0.9998482542310897
1657548680.460154,289,1657548680,459831776,map,-0.014148073270916939,-0.024479810148477554,0.08800042420625687,0.004482066104403848,0.0021802759005315952,-0.016695167485286766,-0.9998482120842414
1657548680.460553,290,1657548680,460029215,map,-0.014158092439174652,-0.024488253518939018,0.08800146728754044,0.00448250107305137,0.0021749742879700806,-0.01669596827540848,-0.9998482542310898
1657548680.460576,291,1657548680,460211274,map,-0.014163920655846596,-0.024502230808138847,0.08800151944160461,0.004483329522042413,0.00217378627367768,-0.01669870782056171,-0.9998482120842411
1657548680.4851441,292,1657548680,484657166,map,-0.01417029369622469,-0.024513518437743187,0.08800272643566132,0.004482616812248649,0.0021769988184237466,-0.016699592904380445,-0.9998481699373927
1657548680.4857397,293,1657548680,485173512,map,-0.0141781410202384,-0.024522535502910614,0.08800433576107025,0.004483941474526455,0.002177359371541867,-0.01670393402977699,-0.9998481277905442
1657548680.5120187,294,1657548680,511544926,map,-0.014182987622916698,-0.024535490199923515,0.08800370246171951,0.004479728436036636,0.0021779372443476216,-0.016705029847838337,-0.9998481277905442
1657548680.5138407,295,1657548680,511912282,map,-0.014184823259711266,-0.024553345516324043,0.08800257742404938,0.004484524121779893,0.0021810348730770457,-0.016704524085656147,-0.9998480434968472
1657548680.5139248,296,1657548680,512047428,map,-0.014188939705491066,-0.02456909790635109,0.08800113946199417,0.004490473001274691,0.0021868871111652977,-0.016709666001174517,-0.9998479592031502
1657548680.547818,297,1657548680,546584593,map,-0.014194954186677933,-0.024581314995884895,0.0879986435174942,0.004488139366492591,0.0021864601273699344,-0.01671050893814474,-0.9998479592031502
1657548680.54784,298,1657548680,546921966,map,-0.014203679747879505,-0.02460460178554058,0.08799247443675995,0.004485777414296648,0.00218811941257586,-0.016710340350750696,-0.9998479592031502
1657548680.5484774,299,1657548680,547185362,map,-0.014207982458174229,-0.02461542747914791,0.0879887118935585,0.004487490864788356,0.0021902321056755324,-0.01671371209863154,-0.9998478749094531
1657548680.5788987,300,1657548680,577664949,map,-0.014208255335688591,-0.024632317945361137,0.0879831314086914,0.004492638954161447,0.002187978977959533,-0.016716367350087802,-0.9998478327626046
1657548680.5789044,301,1657548680,577888173,map,-0.014210176654160023,-0.024645714089274406,0.08797799050807953,0.004495795769578525,0.0021855241709879637,-0.016718474692513308,-0.9998477484689076
1657548680.5789201,302,1657548680,578172287,map,-0.014213602058589458,-0.024656377732753754,0.08797314018011093,0.0044999639447237385,0.0021867764756879566,-0.016718137517725218,-0.9998477484689076
1657548680.5986407,303,1657548680,597977224,map,-0.014213340356945992,-0.024672312662005424,0.08796714246273041,0.004499519015590533,0.0021843534434888975,-0.016717884636634095,-0.9998477484689077
1657548680.5988288,304,1657548680,598317905,map,-0.014215517789125443,-0.024685481563210487,0.08796278387308121,0.004503363104519755,0.00218398120120576,-0.01672593468469974,-0.9998476220283621
